sample_index,controller_time,wind_enabled,x,y,z,roll,pitch,yaw,target_x,target_y,target_z,target_yaw,error_x_world,error_y_world,error_z,error_forward,error_left,yaw_error,vx_setpoint,vy_setpoint,vz_setpoint,yaw_rate_setpoint
1,1777301440.349756,0,0.9460903628414663,1.1838407749067437,0.7863547128778758,0.014687996883933158,-0.021242591434177945,0.18258056087754412,0.0,0.0,2.0,0.0,-0.9460903628414663,-1.1838407749067437,1.2136452871221242,-1.1453122628956827,-0.9923838851241326,-0.18258056087754412,-0.4008592920134889,-0.3473343597934464,0.6,-0.18258056087754412
2,1777301440.4518309,0,0.9734662715291525,1.1870284971426148,0.8201341712586854,0.009427789892510597,-0.024444708520878558,0.1808718531544701,0.0,0.0,2.0,0.0,-0.9734662715291525,-1.1870284971426148,1.1798658287413146,-1.1711176602207958,-0.9925505834729499,-0.1808718531544701,-0.4098911810772785,-0.3473927042155324,0.6,-0.1808718531544701
3,1777301440.5547793,0,0.949828581386935,1.1847799258389815,0.7853906534906179,0.015043461098074858,-0.02105762401628405,0.1810636755546821,0.0,0.0,2.0,0.0,-0.949828581386935,-1.1847799258389815,1.2146093465093821,-1.1476518405743625,-0.994370685165657,-0.1810636755546821,-0.4016781442010269,-0.3480297398079799,0.6,-0.1810636755546821
4,1777301440.6525433,0,0.931170098104603,1.1828024958104826,0.7575377372319078,0.01632353778594365,-0.013624859177030607,0.17891724062150247,0.0,0.0,2.0,0.0,-0.931170098104603,-1.1828024958104826,1.2424622627680924,-1.12680229755527,-0.998206430516157,-0.17891724062150247,-0.3943808041443445,-0.3493722506806549,0.6,-0.17891724062150247
5,1777301440.7442157,0,0.9218156709564991,1.181778109368963,0.743524304762279,0.024443269703375372,0.0025208868546641237,0.18169388394373082,0.0,0.0,2.0,0.0,-0.9218156709564991,-1.181778109368963,1.256475695237721,-1.1201840670063195,-0.9957566404648489,-0.18169388394373082,-0.39206442345221176,-0.3485148241626971,0.6,-0.18169388394373082
6,1777301440.8518813,0,0.9583341230220946,1.1855239838640441,0.7892160028783702,0.012094270443432786,-0.01713554819385293,0.1835129267835967,0.0,0.0,2.0,0.0,-0.9583341230220946,-1.1855239838640441,1.2107839971216299,-1.1585823612160473,-0.9907362514536604,-0.1835129267835967,-0.40550382642561655,-0.3467576880087811,0.6,-0.1835129267835967
7,1777301440.9686441,0,0.9543791280596033,1.1848490765794264,0.7825750142974772,0.0141558126247693,-0.01635321753395095,0.18474006881927557,0.0,0.0,2.0,0.0,-0.9543791280596033,-1.1848490765794264,1.2174249857025228,-1.155785591364275,-0.9893768347508757,-0.18474006881927557,-0.4045249569774962,-0.34628189216280647,0.6,-0.18474006881927557
8,1777301441.0518162,0,0.9727014354824225,1.1866238801248112,0.8054606943797892,0.013720656898272886,-0.021628382099220935,0.18473749483326887,0.0,0.0,2.0,0.0,-0.9727014354824225,-1.1866238801248112,1.1945393056202107,-1.1741195999900247,-0.9877588169139734,-0.18473749483326887,-0.4109418599965086,-0.34571558591989066,0.6,-0.18473749483326887
9,1777301441.1524096,0,0.9914653399015717,1.1885225804974084,0.828996328572757,0.016158294745100815,-0.029814937270200646,0.18750764489073476,0.0,0.0,2.0,0.0,-0.9914653399015717,-1.1885225804974084,1.171003671427243,-1.195640278569263,-0.9828701688631987,-0.18750764489073476,-0.418474097499242,-0.3440045591021195,0.6,-0.18750764489073476
10,1777301441.2490022,0,0.991065302258475,1.1884947193639224,0.827774833740351,0.01917024436044242,-0.03032237414702078,0.1880756257985972,0.0,0.0,2.0,0.0,-0.991065302258475,-1.1884947193639224,1.172225166259649,-1.1958001446891326,-0.9822383342438128,-0.1880756257985972,-0.4185300506411964,-0.34378341698533443,0.6,-0.1880756257985972
11,1777301441.3501885,0,0.9874934410565477,1.1880547274679671,0.8226198532384148,0.020807783200755308,-0.028428453046891546,0.18779132580766217,0.0,0.0,2.0,0.0,-0.9874934410565477,-1.1880547274679671,1.1773801467615852,-1.1919296399529276,-0.9828128331428991,-0.18779132580766214,-0.4171753739835246,-0.34398449160001465,0.6,-0.18779132580766214
12,1777301441.4482152,0,0.9850860958430249,1.1877941733614947,0.8185080360354844,0.018100872320493767,-0.025448176878202514,0.1874038199678893,0.0,0.0,2.0,0.0,-0.9850860958430249,-1.1877941733614947,1.1814919639645156,-1.1891349656600327,-0.983467156512856,-0.1874038199678893,-0.41619723798101144,-0.3442135047794996,0.6,-0.1874038199678893
13,1777301441.5526457,0,0.9829157660551445,1.1875735133367231,0.8151786242608762,0.021199789039240358,-0.026359868431237388,0.1858262969825605,0.0,0.0,2.0,0.0,-0.9829157660551445,-1.1875735133367231,1.1848213757391237,-1.185408310560876,-0.9855259458745412,-0.1858262969825605,-0.4148929086963066,-0.3449340810560894,0.6,-0.1858262969825605
14,1777301441.6482067,0,0.97155799448621,1.184959746566168,0.8084512079700754,0.038514549074525735,-0.04618658661488105,0.17516310031211596,0.0,0.0,2.0,0.0,-0.97155799448621,-1.184959746566168,1.1915487920299246,-1.1631927864063274,-0.9975154531557432,-0.17516310031211596,-0.4071174752422146,-0.3491304086045101,0.6,-0.17516310031211596
15,1777301441.7509243,0,0.9331996888953799,1.176857116405859,0.7791273114908402,0.05417000113620482,-0.05399264544941492,0.17980949356045164,0.0,0.0,2.0,0.0,-0.9331996888953799,-1.176857116405859,1.2208726885091599,-1.128626086424705,-0.9909881375834936,-0.17980949356045164,-0.39501913024864677,-0.34684584815422276,0.6,-0.17980949356045164
16,1777301441.8496275,0,0.9331996888953799,1.176857116405859,0.7791273114908402,0.05417000113620482,-0.05399264544941492,0.17980949356045164,0.0,0.0,2.0,0.0,-0.9331996888953799,-1.176857116405859,1.2208726885091599,-1.128626086424705,-0.9909881375834936,-0.17980949356045164,-0.39501913024864677,-0.34684584815422276,0.6,-0.17980949356045164
17,1777301441.9502087,0,0.9331996888953799,1.176857116405859,0.7791273114908402,0.05417000113620482,-0.05399264544941492,0.17980949356045164,0.0,0.0,2.0,0.0,-0.9331996888953799,-1.176857116405859,1.2208726885091599,-1.128626086424705,-0.9909881375834936,-0.17980949356045164,-0.39501913024864677,-0.34684584815422276,0.6,-0.17980949356045164
18,1777301442.0486572,0,0.9331996888953799,1.176857116405859,0.7791273114908402,0.05417000113620482,-0.05399264544941492,0.17980949356045164,0.0,0.0,2.0,0.0,-0.9331996888953799,-1.176857116405859,1.2208726885091599,-1.128626086424705,-0.9909881375834936,-0.17980949356045164,-0.39501913024864677,-0.34684584815422276,0.6,-0.17980949356045164
19,1777301442.1477256,0,0.9331996888953799,1.176857116405859,0.7791273114908402,0.05417000113620482,-0.05399264544941492,0.17980949356045164,0.0,0.0,2.0,0.0,-0.9331996888953799,-1.176857116405859,1.2208726885091599,-1.128626086424705,-0.9909881375834936,-0.17980949356045164,-0.39501913024864677,-0.34684584815422276,0.6,-0.17980949356045164
20,1777301442.2484083,0,0.9331996888953799,1.176857116405859,0.7791273114908402,0.05417000113620482,-0.05399264544941492,0.17980949356045164,0.0,0.0,2.0,0.0,-0.9331996888953799,-1.176857116405859,1.2208726885091599,-1.128626086424705,-0.9909881375834936,-0.17980949356045164,-0.39501913024864677,-0.34684584815422276,0.6,-0.17980949356045164
21,1777301442.352816,0,0.9331996888953799,1.176857116405859,0.7791273114908402,0.05417000113620482,-0.05399264544941492,0.17980949356045164,0.0,0.0,2.0,0.0,-0.9331996888953799,-1.176857116405859,1.2208726885091599,-1.128626086424705,-0.9909881375834936,-0.17980949356045164,-0.39501913024864677,-0.34684584815422276,0.6,-0.17980949356045164
22,1777301442.4498672,0,-0.742858331142843,0.9616926643143605,0.14058810322514667,-3.140103909552097,0.03693072748948132,1.5286888458169008,0.0,0.0,2.0,0.0,0.742858331142843,-0.9616926643143605,1.8594118967748534,-0.929569580065994,-0.7826823599394039,-1.5286888458169008,-0.32534935302309786,-0.2739388259787914,0.6,-1.2
23,1777301442.5476704,0,-0.742858331142843,0.9616926643143605,0.14058810322514667,-3.140103909552097,0.03693072748948132,1.5286888458169008,0.0,0.0,2.0,0.0,0.742858331142843,-0.9616926643143605,1.8594118967748534,-0.929569580065994,-0.7826823599394039,-1.5286888458169008,-0.32534935302309786,-0.2739388259787914,0.6,-1.2
24,1777301442.6493766,0,0.8307447810196281,0.9676710725622119,1.298567955509855,-0.07969868230375754,-0.05328204457324735,0.023035452598205292,0.0,0.0,2.0,0.0,-0.8307447810196281,-0.9676710725622119,0.701432044490145,-0.8528131506630358,-0.9482794556043265,0.0,-0.2984846027320625,-0.33189780946151426,0.4559308289185942,0.0
25,1777301442.7509975,0,0.8033596527983913,0.9304092842725492,1.3521067179955208,-0.0229227616041868,-0.05210665582352195,-0.04127966914586076,0.0,0.0,2.0,0.0,-0.8033596527983913,-0.9304092842725492,0.6478932820044792,-0.7642792024121539,-0.9627696862516762,0.04127966914586076,-0.26749772084425383,-0.3369693901880867,0.42113063330291145,0.04127966914586076
26,1777301442.8489218,0,0.7738648079169081,0.8911305357636177,1.4024795893145496,0.036125063115117144,-0.06494913376256992,-0.04365769194981388,0.0,0.0,2.0,0.0,-0.7738648079169081,-0.8911305357636177,0.5975204106854504,-0.7342350892746912,-0.9240558459208035,0.04365769194981388,-0.2569822812461419,-0.3234195460722812,0.38838826694554274,0.04365769194981388
27,1777301442.9586284,0,0.73520892534344,0.8496785186102794,1.4479621823453295,0.03164272360561698,-0.025412365293927503,-0.04240640739276474,0.0,0.0,2.0,0.0,-0.73520892534344,-0.8496785186102794,0.5520378176546705,-0.6985269450243413,-0.8800828688068959,0.04240640739276474,-0.24448443075851944,-0.30802900408241357,0.35882458147553586,0.04240640739276474
28,1777301443.0601022,0,0.7010970061083106,0.8126504925414257,1.4864517234578705,0.04196614884878042,-0.04686488361573758,-0.021945249532674654,0.0,0.0,2.0,0.0,-0.7010970061083106,-0.8126504925414257,0.5135482765421295,-0.6830958044028425,-0.8278393304313898,0.0,-0.23908353154099485,-0.2897437656509864,0.3338063797523842,0.0
29,1777301443.1498303,0,0.6704090883764502,0.7777401792000973,1.515558876719213,0.03388369888786947,-0.03294536370271491,-0.031269368320255245,0.0,0.0,2.0,0.0,-0.6704090883764502,-0.7777401792000973,0.48444112328078703,-0.6457658798323985,-0.7983198360082447,0.031269368320255245,-0.22601805794133947,-0.27941194260288565,0.31488673013251156,0.031269368320255245
30,1777301443.2593381,0,0.6326685070534962,0.7349747712374939,1.5471282747899564,0.04856103522829997,-0.021216304828606997,-0.029982208157921093,0.0,0.0,2.0,0.0,-0.6326685070534962,-0.7349747712374939,0.4528717252100436,-0.6103512998917056,-0.7536104065718651,0.0,-0.21362295496209693,-0.26376364230015276,0.29436662138652836,0.0
31,1777301443.359529,0,0.5954513738038545,0.692149998036551,1.5642189193185208,-0.0011801099463658793,-0.04456416944532934,-0.02129602935167291,0.0,0.0,2.0,0.0,-0.5954513738038545,-0.692149998036551,0.43578108068147925,-0.5805774215493381,-0.7046728431932207,0.0,-0.20320209754226834,-0.24663549511762722,0.2832577024429615,0.0
32,1777301443.4605281,0,0.5612725625023128,0.6518567961066223,1.5842704592295125,-0.00226347897014651,-0.017844399269943384,-0.037371040309567796,0.0,0.0,2.0,0.0,-0.5612725625023128,-0.6518567961066223,0.4157295407704875,-0.5365257762915397,-0.6723721167798853,0.0373710403095678,-0.1877840217020389,-0.23533024087295984,0.2702242015008169,0.0373710403095678
33,1777301443.551238,0,0.5308498578071629,0.6160598821532952,1.6001059360981122,0.005551440920399095,-0.02470513694878487,-0.03521972969703447,0.0,0.0,2.0,0.0,-0.5308498578071629,-0.6160598821532952,0.39989406390188775,-0.5088276738545217,-0.634370355748449,0.03521972969703447,-0.17808968584908258,-0.22202962451195715,0.25993114153622704,0.03521972969703447
34,1777301443.658593,0,0.4957377656361207,0.5724977452157944,1.6157220947740212,-0.020483020398488705,-0.016795203705147775,-0.0337616315888243,0.0,0.0,2.0,0.0,-0.4957377656361207,-0.5724977452157944,0.3842779052259788,-0.47613047342734477,-0.5889052324686159,0.0337616315888243,-0.16664566569957065,-0.20611683136401557,0.24978063839688625,0.0337616315888243
35,1777301443.7616339,0,0.4652965554487863,0.5345922660837414,1.6283424586868618,-0.017807894989592944,-0.02204627389271429,-0.025708457093585123,0.0,0.0,2.0,0.0,-0.4652965554487863,-0.5345922660837414,0.3716575413131382,-0.4514007724315814,-0.5463763520845561,0.0,-0.15799027035105348,-0.19123172322959464,0.24157740185353985,0.0
36,1777301443.858648,0,0.43731572992252443,0.4979746621716246,1.6407316163873653,-0.02341871662204886,-0.03146172487585478,-0.028593146892531337,0.0,0.0,2.0,0.0,-0.43731572992252443,-0.4979746621716246,0.3592683836126347,-0.42290025185338675,-0.5102736410838367,0.0,-0.14801508814868536,-0.17859577437934282,0.23352444934821256,0.0
37,1777301443.9589174,0,0.4116137417556712,0.46313678972872496,1.6525992210672509,0.0008805339502248898,-0.014391937788852113,-0.03630603035228362,0.0,0.0,2.0,0.0,-0.4116137417556712,-0.46313678972872496,0.3474007789327491,-0.3945315271762723,-0.47777236469504164,0.03630603035228362,-0.1380860345116953,-0.16722032764326455,0.22581050630628693,0.03630603035228362
38,1777301444.0552287,0,0.3895039435023684,0.43271767866643285,1.6608631628841737,0.0013025431225828533,-0.01862162980134141,-0.03733705778224472,0.0,0.0,2.0,0.0,-0.3895039435023684,-0.43271767866643285,0.3391368371158263,-0.37307982849723503,-0.4469556499283079,0.03733705778224472,-0.13057793997403225,-0.15643447747490774,0.2204389441252871,0.03733705778224472
39,1777301444.155378,0,0.36983974592435004,0.40615287179697185,1.6640459390045932,-0.009866729502823303,-0.014123207460451445,-0.0354362497060162,0.0,0.0,2.0,0.0,-0.36983974592435004,-0.40615287179697185,0.3359540609954068,-0.3552180386099618,-0.4190008806439516,0.0354362497060162,-0.12432631351348662,-0.14665030822538305,0.21837013964701443,0.0354362497060162
40,1777301444.2707326,0,0.34054198981118405,0.3645089583959862,1.6739368703020572,-0.02181937049840806,-0.004387373129574844,-0.04155509939260018,0.0,0.0,2.0,0.0,-0.34054198981118405,-0.3645089583959862,0.3260631296979428,-0.3251051567506399,-0.3783414656492588,0.04155509939260018,-0.11378680486272395,-0.13241951297724058,0.21194103430366285,0.04155509939260018
41,1777301444.3625605,0,0.3235626506419284,0.34035679822979564,1.6794707852238127,-0.022078303141418513,-0.019046316649104732,-0.02944324939891481,0.0,0.0,2.0,0.0,-0.3235626506419284,-0.34035679822979564,0.32052921477618734,-0.3134026494926051,-0.3497346398095043,0.0,-0.10969092732241177,-0.1224071239333265,0.20834398960452177,0.0
42,1777301444.4936206,0,0.30450376986311734,0.31235288647194515,1.6854728998632056,0.009100322826434309,-0.02898865949432381,-0.03103598422766237,0.0,0.0,2.0,0.0,-0.30450376986311734,-0.31235288647194515,0.3145271001367944,-0.2946645046568345,-0.3216515214382617,0.031035984227662374,-0.10313257662989207,-0.11257803250339159,0.20444261508891637,0.031035984227662374
43,1777301444.575727,0,0.2903425227233374,0.2917785908083994,1.6900299464997595,-0.016874963603092662,-0.00407350016032631,-0.033168936730443646,0.0,0.0,2.0,0.0,-0.2903425227233374,-0.2917785908083994,0.30997005350024054,-0.2805066119544768,-0.3012466882893614,0.033168936730443646,-0.09817731418406687,-0.10543634090127649,0.20148053477515634,0.033168936730443646
44,1777301444.6680267,0,0.2760355698881113,0.2702418987380469,1.6959647370127997,-0.009838339193909798,-0.020753075983105714,-0.03209002478472001,0.0,0.0,2.0,0.0,-0.2760355698881113,-0.2702418987380469,0.3040352629872003,-0.2672228746197834,-0.2789592352960172,0.03209002478472001,-0.09352800611692418,-0.09763573235360601,0.19762292094168019,0.03209002478472001
45,1777301444.7586806,0,0.2627644192955146,0.2503370986259913,1.700110924718653,-0.013927634821708404,-0.006462807809830251,-0.03547473050998127,1.0,1.0,3.0,-1.5,0.7372355807044855,0.7496629013740087,1.299889075281347,0.7101832280620566,0.7753389902052736,-1.4645252694900188,0.2485641298217198,0.27136864657184573,0.6,-1.2
46,1777301444.8593178,0,0.25128822931179096,0.23278904524694036,1.7047826830867634,-0.017414983736884295,-0.0038634864303745023,-0.05020551790023145,1.0,1.0,3.0,-1.5,0.748711770688209,0.7672109547530597,1.2952173169132366,0.7092663257712396,0.8038179170602883,-1.4497944820997686,0.24824321401993385,0.28133627097110087,0.6,-1.2
47,1777301444.9593902,0,0.24383124339677179,0.2199060919162054,1.7145342127219019,-0.03361501738325014,0.015798835809311754,-0.13505646346703337,1.0,1.0,3.0,-1.5,0.7561687566032282,0.7800939080837946,1.2854657872780981,0.6442461523073539,0.8748054578759155,-1.3649435365329667,0.22548615330757385,0.3061819102565704,0.6,-1.2
48,1777301445.059332,0,0.24025166803736858,0.21093492508501402,1.733997504246197,-0.04954384462135775,0.04375965708892854,-0.22299476723682876,1.0,1.0,3.0,-1.5,0.7597483319626315,0.789065074914986,1.266002495753803,0.5664338954573552,0.9375467254743091,-1.2770052327631713,0.1982518634100743,0.3281413539160081,0.6,-1.2
49,1777301445.1607873,0,0.24266096989857405,0.20815235401952983,1.7618784444478335,-0.057158706234910046,0.04813853985355046,-0.3094206964380466,1.0,1.0,3.0,-1.5,0.757339030101426,0.7918476459804702,1.2381215555521665,0.4802500312163046,0.9848578620676789,-1.1905793035619534,0.1680875109257066,0.34470025172368757,0.6,-1.1905793035619534
50,1777301445.2709029,0,0.251501793493944,0.22246816512238407,1.787533536086188,-0.035748792911488685,0.0716618321185574,-0.3889711717098524,1.0,1.0,3.0,-1.5,0.7484982065060559,0.7775318348776159,1.212466463913812,0.39771661836787503,1.0033079342180828,-1.1110288282901477,0.13920081642875626,0.351157776976329,0.6,-1.1110288282901477
51,1777301445.3597074,0,0.2707014886577034,0.22540862307145668,1.8309876879258573,-0.04846470026789612,0.08347690426686151,-0.4680136154730443,1.0,1.0,3.0,-1.5,0.7292985113422966,0.7745913769285433,1.1690123120741427,0.3014449028117704,1.0202936295140477,-1.0319863845269557,0.10550571598411963,0.35710277032991666,0.6,-1.0319863845269557
52,1777301445.4599721,0,0.2935913990572513,0.24005822574925725,1.8728743636845557,-0.044025697955677914,0.06985485502886882,-0.560731722703585,1.0,1.0,3.0,-1.5,0.7064086009427487,0.7599417742507427,1.1271256363154443,0.19409196590082306,1.0192413455654221,-0.9392682772964149,0.06793218806528807,0.35673447094789773,0.6,-0.9392682772964149
53,1777301445.5597215,0,0.32226727354371315,0.2587333052080079,1.919108580974244,-0.041133955066810654,0.0901052198654609,-0.633486102300059,1.0,1.0,3.0,-1.5,0.6777327264562869,0.7412666947919921,1.080891419025756,0.10743264223497578,0.9986271519942408,-0.866513897699941,0.03760142478224152,0.34951950319798425,0.6,-0.866513897699941
54,1777301445.6600935,0,0.35676737097244465,0.28278880266427414,1.9648629988389106,-0.04539383147028285,0.06399261805661441,-0.715578168858742,1.0,1.0,3.0,-1.5,0.6432326290275554,0.7172111973357258,1.0351370011610894,0.0,0.9632846338373335,-0.784421831141258,0.0,0.33714962184306674,0.6,-0.784421831141258
55,1777301445.7617383,0,0.39655314625405247,0.31083156481393204,2.0115209849097346,-0.042331275011395525,0.063844554240988,-0.796476111841351,1.0,1.0,3.0,-1.5,0.6034468537459475,0.689168435186068,0.9884790150902654,-0.07073581875113621,0.9132894838430491,-0.703523888158649,-0.024757536562897673,0.3196513193450672,0.6,-0.703523888158649
56,1777301445.860793,0,0.4404221944269928,0.34146963028647226,2.058251349416014,-0.027717568888223368,0.058679696187313404,-0.8443729807870863,1.0,1.0,3.0,-1.5,0.5595778055730072,0.6585303697135277,0.9417486505839858,-0.12061587497590848,0.8557110371081664,-0.6556270192129137,-0.04221555624156796,0.2994988629878582,0.6,-0.6556270192129137
57,1777301445.9584074,0,0.4874831775507828,0.37394011192480564,2.1050508765659606,-0.015146666946636252,0.05932941610279014,-0.8772783240241699,1.0,1.0,3.0,-1.5,0.5125168224492171,0.6260598880751944,0.8949491234340394,-0.15381667175139613,0.7943329958156657,-0.6227216759758301,-0.053835835112988645,0.27801654853548297,0.5817169302321257,-0.6227216759758301
58,1777301446.0625541,0,0.5382806529294246,0.4084891640984117,2.1500967654224366,-0.017532860309350994,0.04916677265343047,-0.9308372414869102,1.0,1.0,3.0,-1.5,0.4617193470705754,0.5915108359015884,0.8499032345775634,-0.1987412482843689,0.7235825735039817,-0.5691627585130898,-0.0695594368995291,0.2532539007263936,0.5524371024754162,-0.5691627585130898
59,1777301446.1594517,0,0.5905476514027741,0.44375530624817555,2.1942697134181244,-0.009746650066025386,0.03772736444848059,-0.9618257128510042,1.0,1.0,3.0,-1.5,0.4094523485972259,0.5562446937518244,0.8057302865818756,-0.22203630374655442,0.6540330763175612,-0.5381742871489958,-0.07771270631129404,0.22891157671114643,0.5237246862782192,-0.5381742871489958
60,1777301446.261802,0,0.6433162632474406,0.47913499281077365,2.236518288928801,-0.00021362808436676647,0.023525244676162814,-0.9901692961064267,1.0,1.0,3.0,-1.5,0.3566837367525594,0.5208650071892263,0.7634817110711989,-0.2398467913975984,0.5839496214865447,-0.5098307038935733,-0.08394637698915944,0.20438236752029065,0.4962631121962793,-0.5098307038935733
61,1777301446.3679907,0,0.7020819893884462,0.5166125939390099,2.2807765516115714,-0.0017452110700013398,0.017667523238375477,-1.026637698712879,1.0,1.0,3.0,-1.5,0.29791801061155376,0.48338740606099007,0.7192234483884286,-0.2593367762282026,0.5051365774527534,-0.47336230128712103,-0.09076787167987091,0.1767978021084637,0.46749524145247856,-0.47336230128712103
62,1777301446.4711943,0,0.75339523438711,0.5514675449039432,2.317161268844067,-0.0027086353345294138,0.013792560434183086,-1.0356497571726722,1.0,1.0,3.0,-1.5,0.24660476561289002,0.44853245509605677,0.682838731155933,-0.2600645557209178,0.4408647191091234,-0.4643502428273279,-0.09102259450232122,0.15430265168819318,0.4438451752513564,-0.4643502428273279
63,1777301446.5810566,0,0.79921456352818,0.5809329921877963,2.3483033927883006,-0.007929036398892511,0.00737095168770839,-1.0545079922016094,1.0,1.0,3.0,-1.5,0.20078543647182,0.41906700781220374,0.6516966072116994,-0.26532587681113656,0.3814893545438123,-0.4454920077983906,-0.09286405688389779,0.1335212740903343,0.42360279468760464,-0.4454920077983906
64,1777301446.6625032,0,0.8477074440296752,0.6136497544292671,2.3793229055312946,-0.0028617070663340136,-0.011995414146960929,-1.082022384667329,1.0,1.0,3.0,-1.5,0.15229255597032476,0.38635024557073294,0.6206770944687054,-0.2696041732026515,0.315868840894848,-0.4179776153326711,-0.09436146062092803,0.1105540943131968,0.4034401114046586,-0.4179776153326711
65,1777301446.768135,0,0.8992956439815976,0.6468600294030458,2.411889225974291,0.016722549408928138,-0.003981828833081608,-1.1183095996978911,1.0,1.0,3.0,-1.5,0.10070435601840244,0.35313997059695423,0.5881107740257092,-0.2735726278172569,0.2449637186676009,-0.3816904003021089,-0.0957504197360399,0.08573730153366031,0.382272003116711,-0.3816904003021089
66,1777301446.8684456,0,0.9416785404493612,0.6770162423185281,2.437248452808003,0.019409689459494284,-0.006285086520905145,-1.1371186971332694,1.0,1.0,3.0,-1.5,0.05832145955063883,0.3229837576814719,0.562751547191997,-0.2685767159075974,0.1886437066070593,-0.3628813028667306,-0.09400185056765908,0.06602529731247075,0.3657885056747981,-0.3628813028667306
67,1777301446.9908812,0,0.953877374306096,0.6856483294951911,2.4447521358255657,0.018592027872883804,-0.016892914623221855,-1.137091689946476,1.0,1.0,3.0,-1.5,0.04612262569390402,0.31435167050480894,0.5552478641744343,-0.2658651151754089,0.1739540453189592,-0.362908310053524,-0.0930527903113931,0.06088391586163571,0.3609111117133823,-0.362908310053524
68,1777301447.0662658,0,1.01340069375344,0.7294042361279492,2.479958421987079,0.03077005326753206,-0.028837520422169645,-1.175924727837855,1.0,1.0,3.0,-1.5,-0.013400693753440107,0.27059576387205075,0.5200415780129211,-0.25492743688486486,0.09172593930772997,-0.32407527216214493,-0.08922460290970269,0.03210407875770549,0.3380270257083987,-0.32407527216214493
69,1777301447.1712632,0,1.048918781255731,0.7568980975526545,2.5016926528016357,0.032347063151241855,-0.037500100660646636,-1.1959554380183737,1.0,1.0,3.0,-1.5,-0.048918781255731014,0.24310190244734553,0.49830734719836434,-0.2441327006471804,0.043483406119794316,-0.3040445619816263,-0.08544644522651314,0.015219192141928009,0.32389977567893685,-0.3040445619816263
70,1777301447.269546,0,1.0728522801557843,0.7832283211284111,2.520220917929542,0.06812992943394745,-0.07562655499350641,-1.2473225134853785,1.0,1.0,3.0,-1.5,-0.07285228015578427,0.21677167887158888,0.47977908207045816,-0.2286862182936498,0.0,-0.2526774865146215,-0.08004017640277743,0.0,0.31185640334579784,-0.2526774865146215
71,1777301447.3686078,0,1.177529460659558,0.7261649056308406,2.6107711467445824,0.05282258878181394,-0.04599511777367599,-1.2266850779523737,1.0,1.0,3.0,-1.5,-0.1775294606595581,0.2738350943691594,0.38922885325541756,-0.3176730585258794,-0.07474086029109668,-0.2733149220476263,-0.11118557048405778,-0.026159301101883838,0.25299875461602145,-0.2733149220476263
72,1777301447.4688766,0,1.1982815152342388,0.7400556264645491,2.629037153365485,0.06614902134949723,-0.04329128322871735,-1.2526865667606737,1.0,1.0,3.0,-1.5,-0.19828151523423876,0.25994437353545086,0.37096284663451495,-0.3089193797069386,-0.1070301520965187,-0.2473134332393263,-0.1081217828974285,-0.03746055323378154,0.24112585031243472,-0.2473134332393263
73,1777301447.5690908,0,1.2202449348147213,0.755376428487706,2.649876423913615,0.07059922283692223,-0.037280132779898605,-1.2619556903768547,-1.0,-1.0,3.0,-1.5,-2.2202449348147213,-1.755376428487706,0.3501235760863848,0.9974705443840959,-2.6487518738731977,-0.23804430962314524,0.34911469053443356,-0.8,0.22758032445615012,-0.23804430962314524
74,1777301447.6685045,0,1.3030963711336225,0.7010549273840114,2.723981056554301,0.05638896587816693,-0.0697752928216028,-1.27110195809103,-1.0,-1.0,3.0,-1.5,-2.3030963711336225,-1.7010549273840114,0.276018943445699,0.9452943818740667,-2.7026393196842995,-0.2288980419089699,0.33085303365592333,-0.8,0.17941231323970436,-0.2288980419089699
75,1777301447.7682092,0,1.375717454427404,0.6469207930318811,2.7934482439428505,0.09147451047928534,-0.13188269408915312,-1.2796968704719902,-1.0,-1.0,3.0,-1.5,-2.375717454427404,-1.6469207930318812,0.20655175605714948,0.8957888190563783,-2.7484439076403513,-0.2203031295280098,0.31352608666973236,-0.8,0.13425864143714716,-0.2203031295280098
76,1777301447.8666847,0,1.1580020848867076,0.8549822174750972,2.598453894892416,0.09945558634939208,-0.14197041082801634,-1.2805881357526392,-1.0,-1.0,3.0,-1.5,-2.1580020848867076,-1.8549822174750972,0.40154610510758415,1.1598988772474779,-2.5985701106732226,-0.2194118642473608,0.40596460703661724,-0.8,0.2610049683199297,-0.2194118642473608
77,1777301447.9631977,0,1.1476499981358335,0.853691720115392,2.6044276970261317,0.09935384908448698,-0.14690519665234977,-1.281633381352415,-1.0,-1.0,3.0,-1.5,-2.1476499981358335,-1.853691720115392,0.39557230297386825,1.164329365232572,-2.587066028723334,-0.21836661864758497,0.4075152778314001,-0.8,0.25712199693301435,-0.21836661864758497
78,1777301448.064747,0,1.1338131788646033,0.9622914174242423,2.5369815695512075,0.09518155429041399,-0.13337930921957017,-1.30209363025679,-1.0,-1.0,3.0,-1.5,-2.133813178864603,-1.9622914174242423,0.46301843044879254,1.3253901186146098,-2.578194585882116,-0.19790636974320996,0.4638865415151134,-0.8,0.3009619797917152,-0.19790636974320996
79,1777301448.1703432,0,1.0929815268826717,0.9151755181146688,2.561551870304659,0.10132153880191005,-0.13567199469685576,-1.306053052755655,-1.0,-1.0,3.0,-1.5,-2.0929815268826717,-1.9151755181146688,0.43844812969534086,1.3007975680085764,-2.521189128986733,-0.1939469472443449,0.4552791488030017,-0.8,0.28499128430197157,-0.1939469472443449
80,1777301448.2697096,0,1.0458829955649094,0.8064821835487198,2.6209411300665453,0.10005329679568824,-0.1450061393458384,-1.3173412651679755,-1.0,-1.0,3.0,-1.5,-2.0458829955649094,-1.8064821835487197,0.3790588699334547,1.2357629864261628,-2.4334964459393995,-0.18265873483202455,0.43251704524915696,-0.8,0.24638826545674558,-0.18265873483202455
81,1777301448.3799713,0,0.9871036726880504,0.8208160078456384,2.5996611190645873,0.0995821553692581,-0.13393005727088336,-1.3259883334460865,-1.0,-1.0,3.0,-1.5,-1.9871036726880504,-1.8208160078456384,0.4003388809354127,1.2849119268425533,-2.3691672124810066,-0.17401166655391354,0.4497191743948936,-0.8,0.2602202726080183,-0.17401166655391354
82,1777301448.4682052,0,0.9431023709795653,0.8194602292344727,2.5892926181167732,0.10675299159270314,-0.13458158158898317,-1.3280919109692404,-1.0,-1.0,3.0,-1.5,-1.9431023709795654,-1.8194602292344726,0.41070738188322675,1.299151537985744,-2.3234215354131598,-0.1719080890307596,0.45470303829501035,-0.8,0.2669597982240974,-0.1719080890307596
83,1777301448.5689492,0,0.8581929098062593,0.7337799273279979,2.6187124184051225,0.10259156612870854,-0.13061300655544913,-1.3293662576389966,-1.0,-1.0,3.0,-1.5,-1.8581929098062593,-1.733779927327998,0.3812875815948775,1.239217133681716,-2.218831814728057,-0.17063374236100337,0.4337259967886006,-0.7765911351548198,0.2478369280366704,-0.17063374236100337
84,1777301448.6869125,0,0.7882386908037046,0.6265979511027527,2.6646052329156062,0.09315982512164556,-0.1401945024750002,-1.3331542197233697,-1.0,-1.0,3.0,-1.5,-1.7882386908037047,-1.6265979511027528,0.33539476708439375,1.1599114050927277,-2.1209017049724004,-0.16684578027663033,0.40596899178245466,-0.7423155967403401,0.21800659860485594,-0.16684578027663033
85,1777301448.7738802,0,0.7123768027183663,0.5817165257404835,2.6677167171025595,0.10073423910835919,-0.13516932657883268,-1.3358518451079504,-1.0,-1.0,3.0,-1.5,-1.7123768027183663,-1.5817165257404835,0.33228328289744047,1.1396399785676603,-2.0335393287415964,-0.1641481548920496,0.3988739924986811,-0.7117387650595587,0.21598413388333632,-0.1641481548920496
86,1777301448.8665118,0,-0.7455119035615455,0.9614996536729169,0.1376184506040857,-3.1340864285204164,0.05661641825513725,1.533336789047336,-1.0,-1.0,3.0,-1.5,-0.2544880964384545,-1.961499653672917,2.862381549395914,-1.96965438692477,0.1808498787830663,-3.033336789047336,-0.6893790354236695,0.06329745757407321,0.6,-1.2
87,1777301448.9689074,0,-0.7615916230879257,0.9594712023015222,0.12077625525864005,-3.1409891037628377,0.03121291335232077,1.5285046254564267,-1.0,-1.0,3.0,-1.5,-0.23840837691207428,-1.9594712023015222,2.87922374474136,-1.9677988106397806,0.15535053162280427,-3.028504625456427,-0.6887295837239231,0.05437268606798149,0.6,-1.2
88,1777301449.0701756,0,0.39010653277613977,0.37541294146862614,2.6857565772050735,2.224843812623578,0.035449478963983115,-1.1926667117098786,-1.0,-1.0,3.0,-1.5,-1.3901065327761397,-1.375412941468626,0.31424342279492645,0.765045828065296,-1.799683809169312,-0.3073332882901214,0.2677660398228536,-0.6298893332092591,0.2042582248167022,-0.3073332882901214
89,1777301449.1885135,0,0.28910300192401056,0.36859711042635285,2.664406483777548,-0.04926483414724374,-0.13595426710484654,-1.559414347296144,-1.0,-1.0,3.0,-1.5,-1.2891030019240106,-1.3685971104263528,0.33559351622245215,1.3538362337385539,-1.3045965094439989,0.05941434729614392,0.4738426818084938,-0.4566087783053996,0.2181357855445939,0.05941434729614392
90,1777301449.2930079,0,0.18745137667381284,0.3239101650100055,2.67910661235902,-0.11460282797052539,-0.06247014670150617,-1.606150202495056,-1.0,-1.0,3.0,-1.5,-1.1874513766738128,-1.3239101650100056,0.3208933876409801,1.3650551394235493,-1.1399137525772327,0.10615020249505602,0.4777692987982422,-0.3989698134020314,0.20858070196663706,0.10615020249505602
91,1777301449.385865,0,0.05960502028312507,0.2782273697053321,2.699493899176672,-0.024090444525845633,-0.07313021239433028,-1.6073783310281158,-1.0,-1.0,3.0,-1.5,-1.059605020283125,-1.2782273697053321,0.30050610082332785,1.3161260059605795,-1.0121464044827047,0.10737833102811578,0.46064410208620277,-0.3542512415689466,0.1953289655351631,0.10737833102811578
92,1777301449.510575,0,-0.054505364370994354,0.2439859063959997,2.7131515132681385,0.0755731815396885,-0.07965680175439609,-1.600321185145769,-1.0,-1.0,3.0,-1.5,-0.9454946356290056,-1.2439859063959997,0.2868484867318615,1.271355283402991,-0.9083593918039287,0.10032118514576906,0.44497434919104684,-0.31792578713137504,0.18645151637570997,0.10032118514576906
93,1777301449.568262,0,-0.1664868327189304,0.20806952282816463,2.723365801980483,0.1330550182585461,-0.05727175848339947,-1.591591479267299,-1.0,-1.0,3.0,-1.5,-0.8335131672810696,-1.2080695228281646,0.27663419801951683,1.2251401086192082,-0.8082127728944306,0.09159147926729894,0.42879903801672287,-0.2828744705130507,0.17981222871268596,0.09159147926729894
94,1777301449.6691883,0,-0.27612511475709706,0.1694176481197041,2.729710372936251,0.13222463398338172,-0.054239001008318855,-1.5920057176101898,-1.0,-1.0,3.0,-1.5,-0.7238748852429029,-1.169417648119704,0.2702896270637489,1.1845064278914799,-0.6989113015991457,0.09200571761018983,0.41457724976201793,-0.24461895555970098,0.1756882575914368,0.09200571761018983
95,1777301449.7715626,0,-0.38317245417409573,0.12189029601766817,2.7347165362121983,0.1174919383862876,-0.056320229406185696,-1.5883826560889989,-1.0,-1.0,3.0,-1.5,-0.6168275458259043,-1.1218902960176682,0.26528346378780165,1.1325639851314913,-0.5970032472033086,0.08838265608899887,0.39639739479602193,-0.208951136521158,0.1724342514620711,0.08838265608899887
96,1777301449.8679793,0,-0.48553095450073075,0.06995166443298659,2.7377046914118224,0.11608741956461717,-0.03319089307173847,-1.5895952953881465,-1.0,-1.0,3.0,-1.5,-0.5144690454992693,-1.0699516644329865,0.2622953085881776,1.0794335266749526,-0.49426533814331153,0.08959529538814648,0.3778017343362334,-0.17299286835015903,0.17049195058231545,0.08959529538814648
97,1777301449.969347,0,-0.5902060432551488,-0.0019143139486068814,2.7512045659549345,0.10920995071972688,0.016169909458985974,-1.594074940378776,-1.0,-1.0,3.0,-1.5,-0.4097939567448512,-0.9980856860513931,0.24879543404506554,1.007353843646614,-0.3864509766783801,0.09407494037877595,0.3525738452763149,-0.13525784183743303,0.16171703212929261,0.09407494037877595
98,1777301450.0732036,0,-0.6816487413568986,-0.06643990392038639,2.756079260954627,0.0913882915505215,0.022192558857862074,-1.5916311946558477,-1.0,-1.0,3.0,-1.5,-0.31835125864310143,-0.9335600960796137,0.24392073904537304,0.9399898045992154,-0.29883297027161015,0.09163119465584768,0.32899643160972536,-0.10459153959506355,0.15854848037949248,0.09163119465584768
99,1777301450.1728125,0,-0.7622555304659752,-0.13229131108051834,2.757873095955047,0.0945108813239368,0.01218646135495193,-1.584346752652028,-1.0,-1.0,3.0,-1.5,-0.23774446953402484,-0.8677086889194816,0.24212690404495296,0.8708504686106822,-0.22596518081539851,0.08434675265202807,0.30479766401373876,-0.07908781328538947,0.15738248762921944,0.08434675265202807
100,1777301450.270801,0,-0.8348593140292031,-0.2003270330770841,2.7596923371139837,0.08161847346905304,0.027472806040866823,-1.5884531161828659,-1.0,-1.0,3.0,-1.5,-0.1651406859707969,-0.7996729669229159,0.24030766288601635,0.8024640190601631,-0.1509960208217906,0.08845311618286589,0.28086240667105705,-0.052848607287626706,0.15619998087591064,0.08845311618286589
101,1777301450.3693867,0,-0.8991697646926439,-0.26940679550669877,2.7621093932560608,0.07027663049390202,0.04298031475535623,-1.5914247011448988,-1.0,-1.0,3.0,-1.5,-0.10083023530735613,-0.7305932044933012,0.23789060674393925,0.7325175817333895,-0.08573890164560379,0.09142470114489876,0.25638115360668634,-0.030008615575961323,0.1546288943835605,0.09142470114489876
102,1777301450.4697452,0,-0.9557452840927578,-0.33934935753256656,2.765390230520233,0.05248155861981068,0.033384440572853655,-1.5855719813819127,-1.0,-1.0,3.0,-1.5,-0.04425471590724217,-0.6606506424674334,0.23460976947976686,0.6612323957691376,-0.03448869464143162,0.08557198138191269,0.23143133851919814,-0.012071043124501067,0.15249635016184845,0.08557198138191269
103,1777301450.5742254,0,-0.9997853238595792,-0.40083399535186365,2.7689607624133883,0.03452782411769259,0.0219080148164171,-1.5840030590147625,-1.0,-1.0,3.0,-1.5,-0.00021467614042081085,-0.5991660046481364,0.2310392375866117,0.5991165878945268,0.0,0.08400305901476246,0.20969080576308438,0.0,0.15017550443129762,0.08400305901476246
104,1777301450.670482,0,-1.0162098652822744,-0.42609347392356844,2.769847074771562,0.03850249115008623,0.045044772632915536,-1.5825718862047256,-1.0,-1.0,3.0,-1.5,0.016209865282274416,-0.5739065260764316,0.23015292522843822,0.5736758606861843,0.0,0.08257188620472555,0.20078655124016448,0.0,0.14959940139848485,0.08257188620472555
105,1777301450.7818186,0,-1.0832010687840805,-0.5436528126685808,2.7803778939777732,-0.00593842580349712,0.046269074406024686,-1.5628926182826315,-1.0,-1.0,3.0,-1.5,0.08320106878408051,-0.4563471873314192,0.21962210602222676,0.45699052386785627,0.0795916724732747,0.06289261828263149,0.15994668335374967,0.027857085365646142,0.1427543689144474,0.06289261828263149
106,1777301450.8748715,0,-1.109249407728589,-0.5986354657234365,2.7875752249607206,-0.0033544690446711905,0.020661188064219304,-1.5667991133623136,-1.0,-1.0,3.0,-1.5,0.10924940772858904,-0.4013645342765635,0.21242477503927937,0.40179801987389974,0.10764419951629288,0.06679911336231359,0.1406293069558649,0.0376754698307025,0.1380761037755316,0.06679911336231359
107,1777301450.9933882,0,-1.1383804365226045,-0.6699625476011345,2.799116531768151,0.008094821440843043,0.02891938334912808,-1.5707448334249954,0.0,0.0,1.0,-3.1,1.1383804365226045,0.6699625476011345,-1.799116531768151,-0.6699039276680289,1.1384149336426268,-1.5292551665750047,-0.2344663746838101,0.39844522677491934,-0.6,-1.2
108,1777301451.2703552,0,-1.1541711186856576,-0.7137686271539957,2.8066590702324232,0.0011561849547558343,0.020704033977181284,-1.5740393896571836,0.0,0.0,1.0,-3.1,1.1541711186856576,0.7137686271539957,-1.8066590702324232,-0.7175079165724706,1.151850256749216,-1.5259606103428165,-0.2511277708003647,0.40314758986222554,-0.6,-1.2
109,1777301451.2901406,0,-1.1764381888115198,-0.812806064751493,2.8188602592953096,0.027011913301982174,0.012877358135649754,-1.5500302874209093,0.0,0.0,1.0,-3.1,1.1764381888115198,0.812806064751493,-1.8188602592953096,-0.7882026125510986,1.1930620908228373,-1.5499697125790908,-0.27587091439288447,0.41757173178799306,-0.6,-1.2
110,1777301451.3945713,0,-1.1843586228985812,-0.8576931429562515,2.828350166850718,0.02611918740019633,0.014598009994420852,-1.5837345670718193,0.0,0.0,1.0,-3.1,1.1843586228985812,0.8576931429562515,-1.828350166850718,-0.8729444447924751,1.1731627642464424,-1.5162654329281808,-0.30553055567736626,0.4106069674862548,-0.6,-1.2
111,1777301451.473561,0,-1.1869234446609809,-0.8918798957970855,2.829688729862362,0.00011894482753129467,0.04712671075652097,-1.6519234583099371,0.0,0.0,1.0,-3.1,1.1869234446609809,0.8918798957970855,-1.829688729862362,-0.9851326051171667,1.110743337746382,-1.448076541690063,-0.34479641179100834,0.38876016821123366,-0.6,-1.2
112,1777301451.5807908,0,-1.1841413290230791,-0.9356405971885674,2.8196074991531073,-0.030873187826905554,0.10168598761129698,-1.7526661100220104,0.0,0.0,1.0,-3.1,1.1841413290230791,0.9356405971885674,-1.8196074991531073,-1.1343835501959387,0.9953833308091818,-1.3473338899779896,-0.39703424256857855,0.34838416578321363,-0.6,-1.2
113,1777301451.680824,0,-1.1719560953750947,-0.9668518779412668,2.7984057508750277,-0.03950268151518943,0.12150770475223352,-1.8395383020304386,0.0,0.0,1.0,-3.1,1.1719560953750947,0.9668518779412668,-1.7984057508750277,-1.2433237459980315,0.8731722086752505,-1.2604616979695615,-0.435163311099311,0.30561027303633764,-0.6,-1.2
114,1777301451.778161,0,-1.1496332259106596,-0.9904328715049675,2.770247615491543,-0.05225010120363921,0.11196327212466523,-1.9296792152278843,0.0,0.0,1.0,-3.1,1.1496332259106596,0.9904328715049675,-1.770247615491543,-1.3311161325920013,0.7285215635989357,-1.1703207847721158,-0.46589064640720046,0.2549825472596275,-0.6,-1.1703207847721158
115,1777301451.8818314,0,-1.1178713797317887,-1.0056626179401642,2.736828020934855,-0.0547020668584448,0.0987197228906634,-2.022264720789447,0.0,0.0,1.0,-3.1,1.1178713797317887,1.0056626179401642,-1.7368280209348552,-1.3926157557244965,0.5671111704539133,-1.077735279210553,-0.48741551450357373,0.19848890965886967,-0.6,-1.077735279210553
116,1777301451.9810941,0,-1.0769744789097881,-1.0124927036895415,2.6981349825969185,-0.05468569594911,0.09451719672316486,-2.0965808818015343,0.0,0.0,1.0,-3.1,1.0769744789097881,1.0124927036895415,-1.6981349825969185,-1.4162603660404272,0.4233462871345427,-1.0034191181984657,-0.49569112811414945,0.14817120049708993,-0.6,-1.0034191181984657
117,1777301452.0827682,0,-1.0289288955968148,-1.008622718358407,2.6565389170330813,-0.0868031304909875,0.11162763932568118,-2.181876466092674,0.0,0.0,1.0,-3.1,1.0289288955968148,1.008622718358407,-1.6565389170330813,-1.4164415023076526,0.2640225950997831,-0.9181235339073259,-0.49575452580767837,0.09240790828492408,-0.6,-0.9181235339073259
118,1777301452.1790102,0,-0.9921667094907849,-1.0023127440962394,2.6277495754052964,-0.0802468084421128,0.09089108156982571,-2.193901469427483,0.0,0.0,1.0,-3.1,0.9921667094907849,1.0023127440962394,-1.6277495754052964,-1.3929368221600096,0.22079996800334767,-0.9060985305725171,-0.4875278877560033,0.07727998880117168,-0.6,-0.9060985305725171
119,1777301452.2829428,0,-0.9117581307877847,-0.9800073332336479,2.5651521158918973,-0.06480830318170976,0.06727290751486388,-2.3234886966215185,0.0,0.0,1.0,-3.1,0.9117581307877847,0.9800073332336479,-1.5651521158918973,-1.3385428973425186,0.0,-0.7765113033784816,-0.4684900140698815,0.0,-0.6,-0.7765113033784816
120,1777301452.379801,0,-0.8490749083036349,-0.9555438887530128,2.519640238972459,-0.05468309746061367,0.06301639197284349,-2.378388604730807,0.0,0.0,1.0,-3.1,0.8490749083036349,0.9555438887530128,-1.519640238972459,-1.2740731768329108,-0.10358505354997194,-0.7216113952691932,-0.44592561189151875,-0.03625476874249017,-0.6,-0.7216113952691932
121,1777301452.4817104,0,-0.7828905121839798,-0.924953203642681,2.4737944431278955,-0.05459263550531616,0.042449037716521094,-2.423121100679507,0.0,0.0,1.0,-3.1,0.7828905121839798,0.924953203642681,-1.4737944431278955,-1.1982063020865539,-0.18099071975275205,-0.676878899320493,-0.4193722057302938,-0.06334675191346321,-0.6,-0.676878899320493
122,1777301452.5985255,0,-0.7423828592750665,-0.9042606815571592,2.4455367637401917,-0.037644158300851986,0.04732691752097854,-2.4578493253205216,0.0,0.0,1.0,-3.1,0.7423828592750665,0.9042606815571592,-1.4455367637401917,-1.1467260721203276,-0.23203233713240584,-0.6421506746794785,-0.40135412524211467,-0.08121131799634204,-0.6,-0.6421506746794785
123,1777301452.6780493,0,-0.6450143170239006,-0.8516927421423371,2.3804074846946444,-0.014513594221036374,0.04303725794039432,-2.5248691813994135,0.0,0.0,1.0,-3.1,0.6450143170239006,0.8516927421423371,-1.3804074846946444,-1.0187779725143384,-0.32173815270079,-0.5751308186005866,-0.3565722903800184,-0.11260835344527649,-0.6,-0.5751308186005866
124,1777301452.7825198,0,-0.6024465119106718,-0.8263139060318737,2.352135273682932,-0.010588938685711362,0.04441281559596066,-2.523417311708959,0.0,0.0,1.0,-3.1,0.6024465119106718,0.8263139060318737,-1.352135273682932,-0.9698456459058273,-0.32424665631660077,-0.5765826882910413,-0.3394459760670395,-0.11348632971081025,-0.6,-0.5765826882910413
125,1777301452.8831956,0,-0.5036294543498491,-0.765438842481643,2.2881754332394926,-0.012271713571946804,5.091965314206738e-05,-2.59037233861882,0.0,0.0,1.0,-3.1,0.5036294543498491,0.765438842481643,-1.2881754332394926,-0.8299160362064575,-0.38830222986190305,-0.5096276613811801,-0.2904706126722601,-0.13590578045166607,-0.6,-0.5096276613811801
126,1777301452.9810116,0,-0.44087662689945356,-0.7265057977004123,2.2490668338664697,-0.003325368065841955,-0.008919960655334258,-2.620185061638523,0.0,0.0,1.0,-3.1,0.44087662689945356,0.7265057977004123,-1.2490668338664697,-0.7441658581517867,-0.4103657512509632,-0.4798149383614771,-0.26045805035312536,-0.1436280129378371,-0.6,-0.4798149383614771
127,1777301453.096519,0,-0.3800736040760915,-0.6878989519028867,2.2104760194657187,-0.004445729926324245,-0.021012601496222354,-2.6477900885643835,0.0,0.0,1.0,-3.1,0.3800736040760915,0.6878989519028867,-1.2104760194657187,-0.6607175306274579,-0.42557403265005933,-0.4522099114356166,-0.23125113571961023,-0.14895091142752076,-0.6,-0.4522099114356166
128,1777301453.179797,0,-0.30201619589277656,-0.6360727326877309,2.159503786331036,-0.0035351830179864967,-0.03521458090709381,-2.6853175051150235,0.0,0.0,1.0,-3.1,0.30201619589277656,0.6360727326877309,-1.1595037863310358,-0.5513782497910139,-0.4379318777022059,-0.41468249488497655,-0.19298238742685486,-0.15327615719577203,-0.6,-0.41468249488497655
129,1777301453.2822034,0,-0.2378059112203739,-0.5876125697558002,2.111988756716037,0.008510319311093854,-0.02284256485517551,-2.6908962692584915,0.0,0.0,1.0,-3.1,0.2378059112203739,0.5876125697558002,-1.1119887567160371,-0.4700191795713663,-0.4253494497250787,-0.40910373074150863,-0.1645067128499782,-0.14887230740377755,-0.6,-0.40910373074150863
130,1777301453.3965082,0,-0.17969858551838802,-0.5442594132140823,2.0697918291752897,0.015964051722171368,-0.026086157735475086,-2.702953445176484,0.0,0.0,1.0,-3.1,0.17969858551838802,0.5442594132140823,-1.0697918291752897,-0.393837867958093,-0.416415206580728,-0.39704655482351603,-0.13784325378533255,-0.1457453223032548,-0.6,-0.39704655482351603
131,1777301453.5130882,0,-0.13871079827975008,-0.5191333868496352,2.041351748385846,0.028507043040953913,-0.046607763495699506,-2.733263901185039,0.0,0.0,1.0,-3.1,0.13871079827975008,0.5191333868496352,-1.0413517483858459,-0.33344221683390957,-0.4213744735200111,-0.3667360988149611,-0.11670477589186834,-0.14748106573200387,-0.6,-0.3667360988149611
132,1777301453.605155,0,-0.08250010967430722,-0.4674067983899373,1.9933236353288832,0.013160872750833708,-0.04898797741226939,-2.74394136312791,0.0,0.0,1.0,-3.1,0.08250010967430722,0.4674067983899373,-0.9933236353288832,-0.2570680166423216,-0.3989879924220619,-0.35605863687209016,-0.08997380582481256,-0.13964579734772165,-0.6,-0.35605863687209016
133,1777301453.6929986,0,-0.045575608313689626,-0.4414533182332418,1.9646671499673185,0.026025384638977262,-0.043188058209642076,-2.763102031583216,0.0,0.0,1.0,-3.1,0.045575608313689626,0.4414533182332418,-0.9646671499673185,-0.20547502137343798,-0.3933677463187442,-0.3368979684167841,-0.0719162574807033,-0.13767871121156047,-0.6,-0.3368979684167841
134,1777301453.797603,0,0.0004439324117764798,-0.39852795062882845,1.9194375658297202,0.045234687799635416,-0.057640267014874146,-2.7877332235694556,0.0,0.0,1.0,-3.1,-0.0004439324117764798,0.39852795062882845,-0.9194375658297202,-0.13768175222167092,-0.3739899191336186,-0.31226677643054446,-0.04818861327758482,-0.13089647169676652,-0.5976344177893181,-0.31226677643054446
135,1777301453.8999274,0,0.02739273766723182,-0.3720413596238973,1.8902892057700855,0.03529389685865383,-0.054678559196423566,-2.795295663830773,0.0,0.0,1.0,-3.1,-0.02739273766723182,0.3720413596238973,-0.8902892057700855,-0.10051055057907124,-0.3592530648025091,-0.3047043361692272,-0.03517869270267493,-0.12573857268087818,-0.5786879837505556,-0.3047043361692272
136,1777301454.0028477,0,0.05963756159977827,-0.3382762224053969,1.8504181973276315,0.018070869715193415,-0.04620194056444154,-2.8011620936437795,0.0,0.0,1.0,-3.1,-0.05963756159977827,0.3382762224053969,-0.8504181973276315,-0.0567330327043095,-0.3387754483409396,-0.2988379063562206,-0.019856561446508325,-0.11857140691932885,-0.5527718282629605,-0.2988379063562206
137,1777301454.1275153,0,0.09965348342768858,-0.2986875397895568,1.805297823817145,0.04696287362999691,-0.05272674103277692,-2.8353008158861055,0.0,0.0,1.0,-3.1,-0.09965348342768858,0.2986875397895568,-0.8052978238171451,0.0,-0.3148341225480251,-0.2646991841138946,0.0,-0.11019194289180878,-0.5234435854811443,-0.2646991841138946
138,1777301454.2181106,0,0.11894676790425406,-0.27323016036893455,1.7714545690408399,0.03713380027283014,-0.054063049152971714,-2.8413111310079793,0.0,0.0,1.0,-3.1,-0.11894676790425406,0.27323016036893455,-0.7714545690408399,0.03280577211047139,-0.29618716286554014,-0.2586888689920208,0.011482020238664986,-0.10366550700293904,-0.5014454698765459,-0.2586888689920208
139,1777301454.3025064,0,0.13024483820669103,-0.25664311690169356,1.7483723751065645,0.03108730622394563,-0.04794677906726984,-2.8473025601831097,0.0,0.0,1.0,-3.1,-0.13024483820669103,0.25664311690169356,-0.7483723751065645,0.050203350863474785,-0.28338848052555404,-0.2526974398168904,0.017571172802216175,-0.09918596818394392,-0.4864420438192669,-0.2526974398168904
140,1777301454.40588,0,0.14498498199333995,-0.23284568977137376,1.7140917402968296,0.03605089502113209,-0.0516627210519254,-2.859220286838215,0.0,0.0,1.0,-3.1,-0.14498498199333995,0.23284568977137376,-0.7140917402968296,0.07436423617660039,-0.26402219722323866,-0.24077971316178504,0.026027482661810136,-0.09240776902813352,-0.4641596311929393,-0.24077971316178504
141,1777301454.5292716,0,0.15775707375182116,-0.20761080862101636,1.6758404666700464,0.00887627145712923,-0.04851864775137398,-2.8683690930107733,0.0,0.0,1.0,-3.1,-0.15775707375182116,0.20761080862101636,-0.6758404666700464,0.09588420293100959,-0.24247837388784757,-0.23163090698922684,0.033559471025853355,-0.08486743086074665,-0.43929630333553016,-0.23163090698922684
142,1777301454.6163,0,0.16230507394228663,-0.19731557239330935,1.6595504069982079,0.003909112633468489,-0.04324534209976744,-2.8701467033350565,0.0,0.0,1.0,-3.1,-0.16230507394228663,0.19731557239330935,-0.6595504069982079,0.10345696218982159,-0.23360870940691458,-0.22985329666494358,0.03620993676643755,-0.08176304829242009,-0.42870776454883514,-0.22985329666494358
143,1777301454.6893518,0,0.1688294824547735,-0.18179247207872803,1.6333304826635624,0.010658314779641895,-0.04377780285172049,-2.8827998931130088,0.0,0.0,1.0,-3.1,-0.1688294824547735,0.18179247207872803,-0.6333304826635624,0.1166842142171125,-0.21894449342921776,-0.21720010688699132,0.04083947497598937,-0.07663057270022622,-0.4116648137313156,-0.21720010688699132
144,1777301454.7882667,0,0.1731712109046896,-0.16885494537383866,1.6066530276936362,-0.016933651512812536,-0.02710009057443279,-2.8894376435276428,0.0,0.0,1.0,-3.1,-0.1731712109046896,0.16885494537383866,-0.6066530276936362,0.125567163591621,-0.20671997554893823,-0.21056235647235735,0.04394850725706735,-0.07235199144212838,-0.3943244680008635,-0.21056235647235735
145,1777301454.8893907,0,0.17561807948581903,-0.15553267373805094,1.5817130574182514,-0.034612755366501165,0.0234964673066296,-2.8875406480660146,0.0,0.0,1.0,-3.1,-0.17561807948581903,0.15553267373805094,-0.5817130574182514,0.13089137930228972,-0.19467811707210078,-0.21245935193398546,0.0458119827558014,-0.06813734097523527,-0.37811348732186345,-0.21245935193398546
146,1777301454.9926682,0,0.17641905770023422,-0.14510769537301477,1.559223857113088,0.04321761137805977,-0.03368777633659067,-2.9156202498057753,0.0,0.0,1.0,-3.1,-0.17641905770023422,0.14510769537301477,-0.5592238571130881,0.13942192115756935,-0.18094600044499115,-0.1843797501942248,0.04879767240514927,-0.0633311001557469,-0.36349550712350726,-0.1843797501942248
147,1777301455.095859,0,0.17775322330278936,-0.1347984922244157,1.5394381570201978,0.02568800988962685,-0.03212649569448367,-2.914381640693171,0.0,0.0,1.0,-3.1,-0.17775322330278936,0.1347984922244157,-0.5394381570201978,0.14281983077391858,-0.1713748459903507,-0.18561835930682902,0.0499869407708715,-0.05998119609662274,-0.3506348020631286,-0.18561835930682902
148,1777301455.1867187,0,0.17927134246541343,-0.12660061176069867,1.5245590185068219,0.013565552786451216,-0.0008795178980844329,-2.9193357135303617,0.0,0.0,1.0,-3.1,-0.17927134246541343,0.12660061176069867,-0.5245590185068219,0.14695492726544515,-0.16300361492906354,-0.1806642864696384,0.0514342245429058,-0.05705126522517223,-0.3409633620294342,-0.1806642864696384
149,1777301455.2892017,0,0.17840145370286264,-0.11863259035502977,1.5049433874359974,0.011585187358262536,-0.049729254120164094,-2.9226483690510654,0.0,0.0,1.0,-3.1,-0.17840145370286264,0.11863259035502977,-0.5049433874359974,0.14837562074805435,-0.15454916805103963,-0.1773516309489347,0.05193146726181902,-0.05409220881786387,-0.32821320183339836,-0.1773516309489347
150,1777301455.3891225,0,0.1779152800671851,-0.11223078687794272,1.488749296987845,0.02292477588852025,-0.024041695944143626,-2.936308371981723,0.0,0.0,1.0,-3.1,-0.1779152800671851,0.11223078687794272,-0.4887492969878451,0.15130186749557753,-0.1461415112039622,-0.16369162801827697,0.052955653623452136,-0.05114952892138677,-0.3176870430420993,-0.16369162801827697
151,1777301455.496207,0,0.17704845531093705,-0.10716428534319368,1.4736393690117089,0.050090717749815605,-0.03831575193129034,-2.9522596253180513,0.0,0.0,1.0,-3.1,-0.17704845531093705,0.10716428534319368,-0.4736393690117089,0.15371586119105987,-0.1385704643832773,-0.14774037468194878,0.05380055141687095,-0.04849966253414705,-0.3078655898576108,-0.14774037468194878
152,1777301455.5895774,0,0.17588073322440112,-0.10291125676569285,1.4594177326937419,0.04668946658956705,-0.035859318678016,-2.954147166565335,0.0,0.0,1.0,-3.1,-0.17588073322440112,0.10291125676569285,-0.45941773269374186,0.1536224277866557,-0.1338839376832825,-0.14585283343466493,0.05376784972532949,-0.04685937818914887,-0.29862152625093225,-0.14585283343466493
153,1777301455.6884706,0,0.17421958546535166,-0.09975938689628018,1.4461046650749245,0.018578606802076167,-0.035291316195513824,-2.9539775453438195,0.0,0.0,1.0,-3.1,-0.17421958546535166,0.09975938689628018,-0.4461046650749245,0.15255559370884172,-0.1305036017195828,-0.14602245465618055,0.053394457798094604,-0.04567626060185398,-0.28996803229870094,-0.14602245465618055
154,1777301455.7953043,0,0.17286845351472802,-0.0976678252653431,1.434730977750296,0.030053171072265728,-0.0282800294168585,-2.9603337526579825,1.0,1.0,2.0,3.1,0.827131546485272,1.0976678252653431,0.5652690222497041,-1.0114554668165487,-0.9305799742422911,-0.22285155452160432,-0.35400941338579206,-0.3257029909848019,0.36742486446230765,-0.22285155452160432
155,1777301455.888578,0,0.17123056279567211,-0.09618959773439742,1.4238135282263673,0.041041051616658386,-0.04043866405356803,-2.9708518366785492,1.0,1.0,2.0,3.1,0.8287694372043279,1.0961895977343974,0.5761864717736327,-1.0029746859123747,-0.9394318461943113,-0.21233347050103668,-0.3510411400693311,-0.32880114616800893,0.37452120665286126,-0.21233347050103668
156,1777301455.9891675,0,0.17086187851912504,-0.09470884731790499,1.4189349138586427,-0.03152694103733609,-0.0293315758253797,-2.957687505245393,1.0,1.0,2.0,3.1,0.829138121480875,1.094708847317905,0.5810650861413573,-1.0153460965556824,-0.9246241339582638,-0.22549780193419292,-0.3553711337944888,-0.3236184468853923,0.37769230599188225,-0.22549780193419292
157,1777301456.0891902,0,0.17149410431685191,-0.09144677069609213,1.4213013049531509,-0.02409089907927801,0.02102880247240647,-2.982942217915417,1.0,1.0,2.0,3.1,0.8285058956831481,1.0914467706960922,0.5786986950468491,-0.9905340374537899,-0.9468476081662546,-0.20024308926417003,-0.34668691310882643,-0.3313966628581891,0.3761541517804519,-0.20024308926417003
158,1777301456.191466,0,0.1766164550938716,-0.08399771361335925,1.4315793533970818,-0.05218198729298695,0.028929147147718593,-2.9921813263570587,1.0,1.0,2.0,3.1,0.8233835449061284,1.0839977136133592,0.5684206466029182,-0.9755697387268556,-0.949355144306696,-0.19100398082252767,-0.3414494085543994,-0.3322743005073436,0.3694734202918969,-0.19100398082252767
159,1777301456.3011148,0,0.18708483709815338,-0.07165113016701277,1.4494510942785956,-0.0776591735722618,0.013119879266459513,-2.9897261857927746,1.0,1.0,2.0,3.1,0.8129151629018466,1.0716511301670129,0.5505489057214044,-0.9656818681277738,-0.9363363372385077,-0.1934591213868118,-0.3379886538447208,-0.3277177180334777,0.35785678871891285,-0.1934591213868118
160,1777301456.3903692,0,0.20236662144701975,-0.053568608965793754,1.470737417304028,-0.04545967219745808,0.03270371254116318,-3.002503995471629,1.0,1.0,2.0,3.1,0.7976333785529802,1.0535686089657939,0.529262582695972,-0.9359978560568512,-0.9328096450171053,-0.18068131170795734,-0.3275992496198979,-0.32648337575598685,0.34402067875238185,-0.18068131170795734
161,1777301456.4913886,0,0.22287773297908556,-0.030676760748923643,1.4938667431474806,-0.01790291301021238,0.011002568900635612,-3.0146512709994986,1.0,1.0,2.0,3.1,0.7771222670209145,1.0306767607489236,0.5061332568525194,-0.9013537847201242,-0.9239994360487064,-0.16853403618008778,-0.31547382465204343,-0.3233998026170472,0.3289866169541376,-0.16853403618008778
162,1777301456.5894704,0,0.2475198822394577,-0.0030389867029333288,1.5177307690000792,-0.03899132878353939,0.02540620211716694,-3.0186270766826984,1.0,1.0,2.0,3.1,0.7524801177605422,1.0030389867029332,0.4822692309999208,-0.8698270088682792,-0.9031691486727328,-0.16455823049688803,-0.3044394531038977,-0.31610920203545645,0.31347500014994856,-0.16455823049688803
163,1777301456.6932404,0,0.2764459462517973,0.02917259851159547,1.5414459571519321,-0.06258880071059261,0.027179647695166304,-3.0213236317165446,1.0,1.0,2.0,3.1,0.7235540537482027,0.9708274014884045,0.4585540428480679,-0.8348065673996523,-0.8770030257659289,-0.1618616754630422,-0.29218229858987826,-0.3069510590180751,0.29806012785124414,-0.1618616754630422
164,1777301456.7997153,0,0.31177466233867496,0.06833310877580868,1.567696250686407,-0.02281165232804655,0.012705244562093895,-3.031519159138835,1.0,1.0,2.0,3.1,0.688225337661325,0.9316668912241913,0.43230374931359306,-0.7864050831163135,-0.8504259855220899,-0.15166614804075199,-0.27524177909070974,-0.29764909493273145,0.2809974370538355,-0.15166614804075199
165,1777301456.899675,0,0.34844195876312223,0.10782521218562544,1.587226632316708,-0.014348879219338835,0.010622787170009789,-3.0423504792266085,1.0,1.0,2.0,3.1,0.6515580412368778,0.8921747878143745,0.4127733676832921,-0.7367481698952647,-0.8232289276185814,-0.14083482795297744,-0.2578618594633426,-0.28813012466650345,0.2683026889941399,-0.14083482795297744
166,1777301457.0034068,0,0.3859787053189487,0.14950512795287277,1.6063952875943144,-0.01966984399298327,0.010100012767487829,-3.0490139972211048,1.0,1.0,2.0,3.1,0.6140212946810513,0.8504948720471273,0.3936047124056856,-0.6900170907867638,-0.7900886609251047,-0.13417130995848162,-0.2415059817753673,-0.2765310313237866,0.25584306306369564,-0.13417130995848162
167,1777301457.0988922,0,0.42510910200826335,0.19172491139754438,1.624037698688,-0.011409469543989201,0.0019409908025375252,-3.0560136042413486,1.0,1.0,2.0,3.1,0.5748908979917366,0.8082750886024557,0.3759623013119999,-0.6418740090649224,-0.7561784974038713,-0.12717170293823823,-0.22465590317272283,-0.26466247409135496,0.24437549585279997,-0.12717170293823823
168,1777301457.2025928,0,0.46551600155757694,0.23440808140986896,1.6399849819823562,-0.015180586578988697,-0.0053643859307795595,-3.0578313853948096,1.0,1.0,2.0,3.1,0.534483998442423,0.765591918590131,0.3600150180176438,-0.5966621289599813,-0.7181910847862569,-0.12535392178477725,-0.20883174513599342,-0.2513668796751899,0.23400976171146848,-0.12535392178477725
169,1777301457.3052707,0,0.5064291181773873,0.27714818008636793,1.6543251369913738,-0.012660626882713737,-0.01281133134953963,-3.0671883368247763,1.0,1.0,2.0,3.1,0.49357088182261266,0.722851819913632,0.34567486300862615,-0.545938992642579,-0.6841619583461269,-0.11599697035481006,-0.19107864742490263,-0.2394566854211444,0.224688660955607,-0.11599697035481006
170,1777301457.3985884,0,0.5471824645873695,0.31924360922712947,1.6672494040595103,0.0014885791474462437,-0.024075081543127805,-3.06921411906303,1.0,1.0,2.0,3.1,0.4528175354126305,0.6807563907728705,0.3327505959404897,-0.5008611175640524,-0.6462283844491534,-0.11397118811655663,-0.17530139114741833,-0.22617993455720367,0.21628788736131832,-0.11397118811655663
